Time,Gx,Gy,Gz,Ax,Ay,Az,Pressure,Temperature,Altitude,AccX,AccY,AccZ,magX,magY,magZ,GyroX,GyroY,GyroZ,roll,pitch,yawqX,qY,qZ,linAccX,linAccY,linAccZ,GravX,GravY,GravZ
2022-03-03 23:18:12.099694,0.11,0.43,9.4,-30.375,34.0625,-53.6875,-0.001090830782496456,-0.004363323129985824,-0.002181661564992912,8.0,0.0,0.0,1.0078125,0.0,0.0,1.3900000000000001,0.41000000000000003,-0.34,0.0,0.0,9.8,981.4854363483075,29.167235908447765,267.6635524154599
2022-03-03 23:18:12.359549,0.09,0.43,9.43,-31.875,35.1875,-52.0625,-0.002181661564992912,-0.006544984694978736,-0.002181661564992912,360.0,0.625,-2.5625,0.999755859375,0.02239990234375,-0.0057373046875,0.0,-0.02,-0.36,0.11,0.43,9.790000000000001,981.5029472342935,29.20305998751428,267.59010609834
2022-03-03 23:18:12.609735,1.3800000000000001,0.42,9.42,-30.375,34.375,-52.875,-0.004363323129985824,-0.002181661564992912,0.0,360.0,0.625,-2.5625,0.999755859375,0.02239990234375,-0.0057373046875,-0.01,-0.02,-0.36,0.11,0.43,9.790000000000001,981.5133031088142,29.209776969160885,267.55152137774104
2022-03-03 23:18:12.849602,0.09,0.42,9.42,-30.75,35.1875,-51.75,0.002181661564992912,0.001090830782496456,-0.001090830782496456,360.0,0.625,-2.5625,0.999755859375,0.02239990234375,-0.0057373046875,0.0,-0.02,-0.38,0.11,0.43,9.790000000000001,981.5185538547007,29.209776969160885,267.6336955002933
2022-03-03 23:18:13.089691,0.11,0.44,9.41,-29.75,35.1875,-52.5625,-0.001090830782496456,0.0,0.001090830782496456,360.0,0.625,-2.5625,0.999755859375,-1.97760009765625,-0.0057373046875,1.28,0.0,-0.37,1.3900000000000001,0.43,9.790000000000001,981.4925912164595,29.20305998751428,267.67978767981737
2022-03-03 23:18:13.339504,0.12,0.44,9.4,-30.75,35.1875,-52.1875,0.1407171709420428,-0.003272492347489368,0.001090830782496456,360.0,0.625,-2.5625,0.999755859375,0.02239990234375,-0.0057373046875,0.0,-0.01,-0.34,0.11,0.43,9.790000000000001,981.5079063766882,29.207537976442836,267.6387016456681
2022-03-03 23:18:13.579531,1.3900000000000001,0.4,9.41,-23.5625,34.75,-51.375,-0.001090830782496456,-0.004363323129985824,-0.001090830782496456,360.0,0.625,-2.5625,0.999755859375,0.02239990234375,-0.0057373046875,1.29,-0.03,-0.36,1.3900000000000001,0.43,9.790000000000001,981.5124274545186,29.21425495110452,267.72713568196923
2022-03-03 23:18:13.809580,1.37,0.43,9.42,-30.375,35.1875,-52.5625,-0.003272492347489368,-0.002181661564992912,0.003272492347489368,360.0,0.625,-2.5625,0.999755859375,0.02239990234375,-0.0057373046875,-0.02,-0.02,-0.35000000000000003,1.3900000000000001,0.43,9.790000000000001,981.4822350553129,29.21425495110452,267.94133138506163
2022-03-03 23:18:14.049509,1.3900000000000001,0.42,9.39,-30.0625,34.75,-52.1875,0.001090830782496456,-0.001090830782496456,-0.002181661564992912,360.0,0.625,None,0.999755859375,0.02239990234375,-0.0057373046875,0.0,-0.04,-0.36,1.3900000000000001,0.43,9.790000000000001,981.4778598654716,29.207537976442836,267.6387016456681
2022-03-03 23:18:14.279515,1.3800000000000001,0.42,9.42,-30.0625,34.375,-52.25,-0.001090830782496456,0.0,0.0,360.0,0.625,-2.5625,0.999755859375,0.02239990234375,-0.0057373046875,1.28,-0.02,-0.38,1.3900000000000001,0.43,9.790000000000001,981.4925912164595,29.209776969160885,267.50793151207
2022-03-03 23:18:14.519693,0.11,0.42,9.43,-30.375,35.5625,-52.5625,0.001090830782496456,-0.002181661564992912,0.001090830782496456,360.0,0.625,-2.5625,0.999755859375,0.02239990234375,-0.0057373046875,0.01,-0.01,-0.35000000000000003,0.11,0.43,9.790000000000001,981.5073223062587,29.21425495110452,267.46684590909837
2022-03-03 23:18:14.749652,1.3900000000000001,0.42,9.4,-30.0625,33.75,-51.0625,0.0,-0.004363323129985824,0.001090830782496456,360.0,0.625,-2.5625,0.999755859375,0.02239990234375,-0.0057373046875,0.0,-0.01,-0.36,1.3900000000000001,0.43,9.790000000000001,981.4922991442118,29.209776969160885,267.5527736092174
2022-03-03 23:18:14.979512,1.3900000000000001,0.4,9.42,-22.375,35.1875,-50.6875,-0.001090830782496456,0.001090830782496456,0.001090830782496456,360.0,0.625,-2.5625,0.999755859375,0.02239990234375,-0.0057373046875,-0.01,0.0,-0.34,0.11,0.43,9.790000000000001,981.528326598091,29.207537976442836,267.81055872755456
2022-03-03 23:18:15.219658,0.13,0.4,9.43,-30.75,35.5625,-52.25,-0.002181661564992912,0.003272492347489368,0.002181661564992912,360.0,0.625,-2.5625,0.999755859375,0.02239990234375,-0.0057373046875,1.28,0.0,-0.36,1.3900000000000001,0.43,9.790000000000001,981.487486164159,29.205298982560635,267.5502695886038
2022-03-03 23:18:15.459502,1.3800000000000001,0.41000000000000003,9.43,-30.75,34.75,-52.25,0.13962634015954636,0.001090830782496456,0.0,360.0,0.625,-2.5625,0.999755859375,0.02239990234375,-0.0057373046875,0.0,-0.02,-0.35000000000000003,1.3900000000000001,0.43,9.790000000000001,981.4673580599479,29.21425495110452,267.81055872755456
2022-03-03 23:18:15.689609,0.11,0.41000000000000003,9.4,-30.375,35.1875,-52.25,0.002181661564992912,0.003272492347489368,-0.002181661564992912,360.0,0.625,-2.5625,0.999755859375,0.02239990234375,-0.0057373046875,0.0,-0.04,-0.37,0.11,0.43,9.790000000000001,981.488069780925,29.205298982560635,267.76696819944715
2022-03-03 23:18:15.919571,1.3900000000000001,0.42,9.44,-30.0625,34.375,-51.875,0.13962634015954636,-0.001090830782496456,0.002181661564992912,360.0,0.625,-2.5625,0.999755859375,0.02239990234375,-0.0057373046875,-0.01,-0.01,-0.37,1.3900000000000001,0.43,9.790000000000001,981.5184081170166,29.207537976442836,267.5527736092174
2022-03-03 23:18:16.159804,0.1,0.43,9.42,-30.75,35.1875,-51.875,0.001090830782496456,0.002181661564992912,-0.001090830782496456,360.0,0.625,-2.5625,0.999755859375,0.02239990234375,-0.0057373046875,-0.02,-0.03,-0.33,0.11,0.43,9.790000000000001,981.482964822921,29.20305998751428,267.6772850810968
2022-03-03 23:18:16.399554,0.13,0.44,9.42,-31.5625,35.5625,-52.25,-0.001090830782496456,0.0,0.001090830782496456,360.0,0.625,-2.5625,0.999755859375,0.02239990234375,-0.0057373046875,-0.03,-0.01,-0.36,1.3900000000000001,0.43,9.790000000000001,981.4680874022539,29.189625992788933,267.6772850810968
2022-03-03 23:18:16.649664,0.1,0.4,9.44,-30.0625,35.1875,-51.5,0.001090830782496456,-0.004363323129985824,0.0,360.0,0.625,-2.5625,0.999755859375,0.02239990234375,-0.0057373046875,-0.01,-0.02,-0.35000000000000003,1.3900000000000001,0.43,9.790000000000001,981.4787340181806,29.20082099130377,267.6299455358468
2022-03-03 23:18:16.889568,0.11,0.44,None,-30.0625,34.375,-51.875,0.001090830782496456,0.002181661564992912,-0.002181661564992912,360.0,0.625,-2.5625,0.999755859375,0.02239990234375,-0.0057373046875,-0.01,-0.03,-0.34,0.11,0.43,9.790000000000001,981.4887981366305,29.187386989593506,267.5888558732049
2022-03-03 23:18:17.139483,0.11,0.4,9.42,-30.0625,34.375,-51.0625,0.001090830782496456,0.001090830782496456,-0.003272492347489368,360.0,0.625,-2.5625,0.999755859375,0.02239990234375,-0.0057373046875,0.0,0.0,-0.38,0.11,0.43,9.790000000000001,981.4635651521679,29.187386989593506,267.71462505815833
2022-03-03 23:18:17.389505,0.11,0.41000000000000003,9.39,-31.1875,34.75,-51.5,-0.001090830782496456,-0.003272492347489368,0.0,360.0,0.625,-2.5625,0.999755859375,0.02239990234375,-0.0057373046875,-0.01,-0.02,-0.41000000000000003,1.3900000000000001,0.43,9.790000000000001,981.4940484703496,29.178430965170264,267.7980572668721
2022-03-03 23:18:17.639774,1.3800000000000001,0.42,9.42,-30.375,34.75,-52.25,-0.001090830782496456,-0.002181661564992912,0.001090830782496456,360.0,0.625,-2.5625,0.999755859375,0.02239990234375,-0.0057373046875,0.0,0.0,-0.35000000000000003,1.3900000000000001,0.43,9.790000000000001,981.5198631633423,29.178430965170264,267.61996509350223
2022-03-03 23:18:17.879794,0.09,0.42,9.42,-30.75,34.0625,-52.6875,0.0,0.003272492347489368,0.0,360.0,0.625,-2.5625,0.999755859375,0.02239990234375,-0.0057373046875,-0.01,-0.01,-0.36,1.3900000000000001,0.43,9.790000000000001,981.4940484703496,29.18290897971019,267.71212824150155
2022-03-03 23:18:18.119726,0.11,0.43,9.44,-30.0625,34.75,-51.875,-0.001090830782496456,0.0,-0.001090830782496456,360.0,0.625,-2.5625,0.999755859375,0.02239990234375,-0.0057373046875,0.0,-0.02,-0.32,1.3900000000000001,0.43,9.790000000000001,981.469106306363,29.178430965170264,267.7096331942014
2022-03-03 23:18:18.369669,0.11,0.44,9.43,-30.0625,34.75,-51.875,0.0,0.003272492347489368,0.001090830782496456,360.0,0.625,-2.5625,0.999755859375,0.02239990234375,-0.0057373046875,0.0,0.0,-0.34,0.11,0.43,9.790000000000001,981.4686699439034,29.17619195615407,267.49668318221114
2022-03-03 23:18:18.599610,0.1,0.42,9.43,-30.375,34.75,-51.5,0.14180800172453928,0.0,-0.001090830782496456,360.0,0.625,-2.5625,0.999755859375,0.02239990234375,-0.0057373046875,0.0,-0.02,-0.35000000000000003,0.11,0.43,9.790000000000001,981.484856159416,29.16947492212057,267.57388767381224
2022-03-03 23:18:18.849775,1.3800000000000001,0.41000000000000003,9.44,-30.375,34.75,-51.0625,0.0,0.0,0.0,360.0,0.625,-2.5625,0.999755859375,0.02239990234375,-0.0057373046875,1.28,-0.01,-0.36,1.3900000000000001,0.43,9.790000000000001,981.4902509639027,29.167235908447765,267.74450111514625
2022-03-03 23:18:19.109688,0.1,0.38,9.450000000000001,-30.75,34.375,-50.75,0.13962634015954636,-0.003272492347489368,0.002181661564992912,360.0,0.625,-2.5625,0.999755859375,0.02239990234375,-0.0057373046875,-0.01,-0.02,-0.34,1.3900000000000001,0.43,9.790000000000001,981.4842751419166,29.173952945973724,267.7034033168373
2022-03-03 23:18:19.349791,0.11,0.43,9.44,-31.5625,34.375,-51.5625,0.13962634015954636,0.002181661564992912,-0.001090830782496456,360.0,0.625,-2.5625,0.999755859375,0.02239990234375,-0.0057373046875,1.29,-0.04,-0.35000000000000003,1.3900000000000001,0.43,9.790000000000001,981.4850012843204,29.167235908447765,267.7943154543455
2022-03-03 23:18:19.589685,0.09,0.41000000000000003,9.4,-30.75,34.0625,-51.5625,0.002181661564992912,-0.001090830782496456,0.002181661564992912,360.0,0.625,-2.5625,0.999755859375,0.02239990234375,-0.0057373046875,-0.01,-0.01,-0.33,0.11,0.43,9.790000000000001,981.5201535511404,29.178430965170264,267.5713991665617
2022-03-03 23:18:19.839801,0.11,0.42,9.42,-30.0625,34.375,-51.875,0.13962634015954636,-0.003272492347489368,-0.002181661564992912,360.0,0.625,-2.5625,0.999755859375,0.02239990234375,-0.0057373046875,1.28,-0.04,None,1.3900000000000001,0.43,9.790000000000001,981.479461054587,29.16947492212057,267.7034033168373
2022-03-03 23:18:20.079651,1.3800000000000001,0.4,9.44,-23.1875,34.75,-51.5625,0.1407171709420428,0.001090830782496456,0.002181661564992912,360.0,0.625,-2.5625,0.999755859375,0.02239990234375,-0.0057373046875,1.28,-0.01,-0.34,1.3900000000000001,0.43,9.790000000000001,981.4949203368253,29.164996893610805,267.8765071744083
2022-03-03 23:18:20.319695,0.1,0.41000000000000003,9.43,-31.5625,35.1875,-51.875,-0.001090830782496456,-0.002181661564992912,0.001090830782496456,360.0,0.625,-2.5625,0.999755859375,0.02239990234375,-0.0057373046875,1.28,0.0,-0.35000000000000003,1.3900000000000001,0.43,9.790000000000001,981.5055647866257,29.158279842115007,267.8690436444424
2022-03-03 23:18:20.569597,0.1,0.44,9.44,-30.375,35.1875,-53.0625,-0.001090830782496456,0.0,0.001090830782496456,360.0,0.625,-2.5625,0.999755859375,0.02239990234375,-0.0057373046875,-0.01,-0.01,-0.35000000000000003,0.11,0.43,9.790000000000001,981.4755171082512,29.158279842115007,267.6112554289145
2022-03-03 23:18:20.819658,1.37,0.41000000000000003,9.46,-31.1875,34.75,-51.5625,0.14180800172453928,-0.004363323129985824,0.002181661564992912,360.0,0.625,-2.5625,0.999755859375,0.02239990234375,-0.0057373046875,1.28,-0.03,-0.36,1.3900000000000001,0.43,9.790000000000001,981.5008948761937,29.156040822621435,267.34726184576004
2022-03-03 23:18:21.069704,1.3800000000000001,0.43,9.42,2017.9375,34.75,-52.75,0.1407171709420428,0.0,0.0,360.0,0.625,-2.5625,0.999755859375,0.02239990234375,-0.0057373046875,0.01,-0.01,-0.34,1.3900000000000001,0.43,9.790000000000001,981.5210234716145,29.158279842115007,267.7420136191879
2022-03-03 23:18:21.309719,0.12,0.41000000000000003,9.48,-30.75,34.75,-51.5625,0.001090830782496456,0.0,0.001090830782496456,360.0,0.625,-2.5625,0.999755859375,0.02239990234375,-0.0057373046875,0.0,-0.02,-0.39,1.3900000000000001,0.43,9.790000000000001,981.5462568797382,29.160518860444427,267.6100129604265
2022-03-03 23:18:21.559657,0.1,0.41000000000000003,9.450000000000001,-30.0625,34.75,-52.375,0.0,-0.001090830782496456,0.004363323129985824,360.0,0.625,-2.5625,0.999755859375,0.02239990234375,-0.0057373046875,0.01,-0.04,-0.36,0.11,0.43,9.790000000000001,981.5151939638198,29.16947492212057,267.8316749574872
2022-03-03 23:18:21.789483,0.1,0.42,9.46,-30.0625,35.1875,-51.1875,0.0,0.001090830782496456,0.0,360.0,0.625,-2.5625,0.999755859375,0.02239990234375,-0.0057373046875,0.0,0.0,-0.37,0.11,0.43,9.790000000000001,981.4583147563856,29.178430965170264,267.5340365825412
2022-03-03 23:18:21.989502,0.1,0.43,9.450000000000001,-30.0625,35.5625,-53.5625,-0.001090830782496456,-0.001090830782496456,0.001090830782496456,360.0,0.625,-2.5625,0.999755859375,0.02239990234375,-0.0057373046875,0.0,-0.01,-0.37,0.11,0.43,9.790000000000001,981.4637106815453,29.185147985233925,267.669787901129
2022-03-03 23:18:22.199469,0.09,0.42,9.43,-31.1875,34.375,-51.5625,0.0,0.0,-0.001090830782496456,360.0,0.625,-2.5625,0.999755859375,0.02239990234375,-0.0057373046875,0.0,-0.02,-0.37,0.11,0.43,9.790000000000001,981.5096536162064,29.173952945973724,267.7469903804366
2022-03-03 23:18:22.409682,0.09,0.42,9.450000000000001,-31.1875,34.75,-52.0,-0.001090830782496456,-0.002181661564992912,0.001090830782496456,360.0,0.625,-2.5625,0.999755859375,0.02239990234375,-0.0057373046875,-0.01,-0.01,-0.34,1.3900000000000001,0.43,9.790000000000001,981.4800417515268,29.160518860444427,267.69718449779
2022-03-03 23:18:22.659582,0.11,0.42,9.42,-22.0625,34.75,-52.375,-0.003272492347489368,-0.004363323129985824,0.0,360.0,0.625,-2.5625,0.999755859375,0.02239990234375,-0.0057373046875,0.0,-0.01,-0.37,1.3900000000000001,0.43,9.790000000000001,981.5213130308006,29.156040822621435,267.7793880144935
2022-03-03 23:18:22.909606,1.3800000000000001,0.4,9.450000000000001,-30.0625,34.375,-52.375,-0.002181661564992912,-0.004363323129985824,0.001090830782496456,360.0,0.625,-2.5625,0.999755859375,0.02239990234375,-0.0057373046875,-0.03,-0.04,-0.34,1.3900000000000001,0.43,9.790000000000001,981.5217469811707,29.158279842115007,267.8653178509668
2022-03-03 23:18:23.159751,0.08,0.42,9.44,-22.5,34.75,-51.875,0.002181661564992912,-0.001090830782496456,0.0,360.0,0.625,-2.5625,0.999755859375,0.02239990234375,-0.0057373046875,1.3,0.0,-0.36,1.3900000000000001,0.43,9.790000000000001,981.511827178431,29.1493237571558,267.34478158426214
2022-03-03 23:18:23.409577,0.14,0.42,9.450000000000001,-30.5,34.0625,-52.375,0.0,0.002181661564992912,0.001090830782496456,360.0,0.625,-2.5625,0.999755859375,0.02239990234375,-0.0057373046875,0.01,-0.01,-0.35000000000000003,0.11,0.43,9.790000000000001,981.5062889066664,29.156040822621435,267.7370439352428
2022-03-03 23:18:23.649762,0.11,0.41000000000000003,9.46,-30.5,34.75,-52.0,-0.001090830782496456,-0.001090830782496456,0.0,360.0,0.625,-2.5625,0.999755859375,0.02239990234375,-0.0057373046875,-0.02,-0.04,-0.38,1.3900000000000001,0.43,9.790000000000001,981.4653080866931,29.1493237571558,267.68973651178425
2022-03-03 23:18:23.909782,1.3900000000000001,0.42,9.450000000000001,-30.75,34.75,-51.1875,0.0,0.001090830782496456,-0.001090830782496456,360.0,0.625,-2.5625,0.999755859375,0.02239990234375,-0.0057373046875,0.0,-0.01,-0.37,1.3900000000000001,0.43,9.790000000000001,981.5014737480949,29.15156278014183,267.7345617472413
2022-03-03 23:18:24.149560,1.3900000000000001,0.4,9.41,-29.75,35.1875,-52.0,0.13962634015954636,-0.002181661564992912,0.0,360.0,0.625,-2.5625,0.999755859375,0.02239990234375,-0.0057373046875,-0.01,-0.01,-0.37,0.11,0.43,9.790000000000001,981.4921318970819,29.133650563657284,267.59637500040577
2022-03-03 23:18:24.399633,0.11,0.4,9.450000000000001,-29.0,34.75,-52.375,0.002181661564992912,-0.003272492347489368,0.001090830782496456,360.0,0.625,-2.5625,0.999755859375,0.02239990234375,-0.0057373046875,-0.02,0.0,-0.38,1.3900000000000001,0.43,9.790000000000001,981.4724362674061,29.12693346326705,267.9014627005154
2022-03-03 23:18:24.649608,0.11,0.42,9.44,-29.75,34.375,-51.5625,0.001090830782496456,0.0,-0.001090830782496456,360.0,0.625,-2.5625,0.999755859375,0.02239990234375,-0.0057373046875,-0.02,-0.01,-0.36,0.11,0.43,9.790000000000001,981.518229933521,29.133650563657284,267.6350116112769
2022-03-03 23:18:24.899634,0.1,0.42,9.41,-30.0625,35.1875,-52.375,-0.002181661564992912,-0.001090830782496456,0.001090830782496456,360.0,0.625,-2.5625,0.999755859375,0.02239990234375,-0.0057373046875,0.0,-0.03,-0.37,1.3900000000000001,0.43,9.790000000000001,981.4778286706321,29.129172497894615,267.8578782069272
2022-03-03 23:18:25.139681,0.1,0.41000000000000003,9.42,-29.75,34.75,-51.5625,0.0,-0.001090830782496456,-0.001090830782496456,360.0,0.625,-10.5625,0.999755859375,0.02239990234375,-0.0057373046875,0.0,-0.02,-0.36,0.11,0.43,9.790000000000001,981.4981012299481,29.124694427475333,267.5901936204039
2022-03-03 23:18:25.389813,0.08,0.4,9.42,-30.0625,34.75,-53.5625,0.001090830782496456,-0.002181661564992912,0.002181661564992912,360.0,0.625,-2.5625,0.999755859375,0.02239990234375,-0.0057373046875,1.28,-0.01,-0.35000000000000003,1.3900000000000001,0.43,9.790000000000001,981.4981012299481,29.124694427475333,267.6374841315738
2022-03-03 23:18:25.629578,0.11,0.42,9.42,-30.0625,34.375,-51.5625,-0.002181661564992912,0.0,-0.002181661564992912,360.0,0.625,-2.5625,0.999755859375,0.02239990234375,-0.0057373046875,-0.01,-0.03,-0.39,0.11,0.43,9.790000000000001,981.4778286706321,29.129172497894615,267.420806766051
2022-03-03 23:18:25.889769,0.11,0.42,9.43,-22.75,34.375,-52.375,0.1407171709420428,-0.002181661564992912,-0.003272492347489368,360.0,0.625,-2.5625,0.999755859375,0.02239990234375,-0.0057373046875,-0.01,-0.03,-0.36,1.3900000000000001,0.43,9.790000000000001,981.5073004996455,29.142606681212783,267.6436731728849
2022-03-03 23:18:26.130328,1.3900000000000001,0.39,9.46,-30.0625,34.75,-52.75,0.13962634015954636,-0.002181661564992912,0.0,360.0,0.625,-2.5625,0.999755859375,0.02239990234375,-0.0057373046875,1.28,-0.01,-0.38,1.3900000000000001,0.43,9.790000000000001,981.4976689477276,29.133650563657284,267.5540291561026
2022-03-03 23:18:26.379591,1.3900000000000001,0.4,9.44,-30.75,35.5625,-52.0625,-0.001090830782496456,0.0,0.002181661564992912,360.0,0.625,-2.5625,0.999755859375,0.02239990234375,-0.0057373046875,-0.01,-0.02,-0.32,1.3900000000000001,0.43,9.790000000000001,981.4919875206374,29.142606681212783,267.8217323042393
2022-03-03 23:18:26.609510,0.09,0.4,9.44,-30.75,35.1875,-52.75,0.13962634015954636,0.0,-0.002181661564992912,360.0,0.625,-2.5625,0.999755859375,0.02239990234375,-0.0057373046875,0.0,0.0,-0.38,1.3900000000000001,0.43,9.790000000000001,981.5068672705213,29.1493237571558,267.7793880144935
2022-03-03 23:18:26.839697,1.3800000000000001,0.42,9.41,-31.1875,35.1875,-51.5625,0.13962634015954636,0.001090830782496456,0.0,360.0,0.625,-2.5625,0.999755859375,0.02239990234375,-0.0057373046875,0.01,-0.01,-0.31,0.11,0.43,9.790000000000001,981.4965139165188,29.142606681212783,267.5565052783238
2022-03-03 23:18:27.079721,1.3900000000000001,0.4,9.43,-30.75,34.75,-52.375,0.001090830782496456,0.001090830782496456,-0.001090830782496456,360.0,0.625,-2.5625,0.999755859375,0.02239990234375,-0.0057373046875,0.0,0.0,-0.37,0.11,0.43,9.790000000000001,981.5020517913975,29.13812862476334,267.8192510642353
2022-03-03 23:18:27.319641,0.12,0.43,9.450000000000001,-30.5,34.75,-52.0,0.001090830782496456,-0.001090830782496456,0.002181661564992912,360.0,0.625,-2.5625,0.999755859375,0.02239990234375,-0.0057373046875,-0.02,0.0,-0.34,0.11,0.43,9.790000000000001,981.4569794403374,29.142606681212783,267.90518114802836
2022-03-03 23:18:27.559557,1.37,0.42,9.43,-31.1875,34.375,-52.375,-0.001090830782496456,0.003272492347489368,0.002181661564992912,360.0,0.625,-2.5625,0.999755859375,0.02239990234375,-0.0057373046875,0.0,-0.01,-0.33,1.3900000000000001,0.43,9.790000000000001,981.5019073582528,29.142606681212783,267.86407680447024
2022-03-03 23:18:27.799505,0.11,0.39,9.450000000000001,-30.75,34.75,-52.0,0.0,-0.001090830782496456,0.0,360.0,0.625,-2.5625,0.999755859375,0.02239990234375,-0.0057373046875,-0.01,-0.01,-0.38,1.3900000000000001,0.43,9.790000000000001,981.4511529343475,29.131411531358026,267.9886322241294
2022-03-03 23:18:28.039484,1.3800000000000001,0.43,9.43,-31.1875,34.75,-52.0,0.0,-0.00545415391248228,-0.001090830782496456,360.0,0.625,-2.5625,0.999755859375,0.02239990234375,-0.0057373046875,1.28,0.0,-0.36,1.3900000000000001,0.43,9.790000000000001,981.507156141725,29.133650563657284,267.46562581099306
2022-03-03 23:18:28.269727,1.3900000000000001,0.43,9.42,-30.75,34.375,-52.75,0.0,-0.003272492347489368,0.002181661564992912,360.0,0.625,-2.5625,0.999755859375,0.02239990234375,-0.0057373046875,-0.01,-0.03,-0.38,1.3900000000000001,0.43,9.790000000000001,981.5175091550904,29.13812862476334,267.4245171111846
2022-03-03 23:18:28.509611,1.3900000000000001,0.41000000000000003,9.44,-30.5,34.375,-52.0625,0.13962634015954636,0.004363323129985824,0.0,360.0,0.625,-2.5625,0.999755859375,0.02239990234375,-0.0057373046875,-0.01,0.0,-0.38,0.11,0.43,9.790000000000001,981.4768189933748,29.13588959479239,267.5129215992522
2022-03-03 23:18:28.739693,1.3800000000000001,0.38,9.44,-31.1875,34.375,-52.0625,-0.002181661564992912,0.003272492347489368,0.0,360.0,0.625,-2.5625,0.999755859375,0.02239990234375,-0.0057373046875,-0.01,-0.04,-0.34,1.3900000000000001,0.43,9.790000000000001,981.4972361994265,29.140367653570138,267.77194818040283
2022-03-03 23:18:28.979516,1.3900000000000001,0.42,9.43,-23.1875,35.5625,-51.5625,0.001090830782496456,-0.002181661564992912,0.001090830782496456,360.0,0.625,-2.5625,0.999755859375,0.02239990234375,-0.0057373046875,0.0,-0.02,-0.37,0.11,0.43,9.790000000000001,981.5226134836445,29.147084733005613,267.90394122319964
2022-03-03 23:18:29.219767,0.11,0.42,9.43,-30.0625,34.75,-52.0625,0.1407171709420428,-0.001090830782496456,-0.002181661564992912,360.0,0.625,-2.5625,0.999755859375,0.02239990234375,-0.0057373046875,-0.02,-0.02,-0.34,1.3900000000000001,0.43,9.790000000000001,981.5329663313668,29.13812862476334,267.99111156812353
2022-03-03 23:18:29.459690,0.11,0.43,9.44,-30.5,34.5,-52.375,-0.001090830782496456,-0.001090830782496456,0.0,360.0,0.625,-2.5625,0.999755859375,0.02239990234375,-0.0057373046875,-0.01,-0.01,-0.35000000000000003,0.11,0.43,9.790000000000001,981.5176534143508,29.142606681212783,267.73332131672964
2022-03-03 23:18:29.699620,0.1,0.44,9.43,-30.75,34.0625,-52.375,0.1407171709420428,0.0,0.0,360.0,0.625,-2.5625,0.999755859375,0.02239990234375,-0.0057373046875,1.28,-0.01,-0.35000000000000003,0.11,0.43,9.790000000000001,981.4919875206374,29.144845707691275,267.51416011852433
2022-03-03 23:18:29.949745,0.1,0.41000000000000003,9.43,-30.5,34.0625,-51.6875,0.001090830782496456,0.0,0.0,360.0,0.625,-2.5625,0.999755859375,0.02239990234375,None,0.0,-0.03,-0.36,0.11,0.43,9.790000000000001,981.487316239693,29.13588959479239,267.81305570494436
2022-03-03 23:18:30.199791,0.1,0.41000000000000003,9.44,-30.75,34.0625,-51.25,-0.001090830782496456,-0.002181661564992912,-0.001090830782496456,360.0,0.625,-2.5625,0.999755859375,0.02239990234375,-0.0057373046875,-0.01,-0.02,-0.37,1.3900000000000001,0.43,9.790000000000001,981.5176534143508,29.133650563657284,267.64119622940296
2022-03-03 23:18:30.449702,0.09,0.41000000000000003,9.44,-30.5,35.5625,-52.375,-0.004363323129985824,-0.001090830782496456,0.001090830782496456,360.0,0.625,-2.5625,0.999755859375,0.02239990234375,-0.0057373046875,0.0,-0.01,-0.37,0.11,0.43,9.790000000000001,981.4822119853311,29.131411531358026,267.85540186420053
2022-03-03 23:18:30.699521,0.11,0.43,9.43,-30.5,34.75,-52.0625,-0.001090830782496456,-0.004363323129985824,-0.003272492347489368,360.0,0.625,-2.5625,0.999755859375,0.02239990234375,-0.0057373046875,-0.02,-0.03,-0.35000000000000003,1.3900000000000001,0.43,9.790000000000001,981.4724362674061,29.12021635239944,267.76699713749065
2022-03-03 23:18:30.949573,0.09,0.4,9.42,-30.5,34.5,-51.6875,0.001090830782496456,-0.002181661564992912,0.0,360.0,0.625,-2.5625,0.999755859375,0.02239990234375,-0.0057373046875,-0.02,-0.01,-0.34,0.11,0.43,9.790000000000001,981.487604676948,29.122455390519463,267.67983063387624
2022-03-03 23:18:31.189660,1.3800000000000001,0.41000000000000003,9.42,-30.0625,35.5625,-52.375,0.0,0.001090830782496456,-0.002181661564992912,360.0,0.625,-2.5625,0.999755859375,0.02239990234375,-0.0057373046875,-0.01,0.0,-0.34,1.3900000000000001,0.43,9.790000000000001,981.4728685904649,29.12021635239944,267.5453766612473
2022-03-03 23:18:31.439666,0.11,0.42,9.41,-29.375,35.1875,-52.0625,0.0,-0.003272492347489368,0.0,360.0,0.625,-2.5625,0.999755859375,0.02239990234375,-0.0057373046875,0.0,-0.04,-0.34,0.11,0.43,9.790000000000001,981.5088850188445,29.113499231054448,267.7620531717099
2022-03-03 23:18:31.689625,1.3900000000000001,0.41000000000000003,9.41,-21.75,34.5,-52.0625,0.0,-0.002181661564992912,-0.001090830782496456,360.0,0.625,-2.5625,0.999755859375,0.02239990234375,-0.0057373046875,1.28,0.0,-0.33,1.3900000000000001,0.43,9.790000000000001,981.5034932745666,29.11797731311526,267.54290850066866
2022-03-03 23:18:31.939626,0.1,0.4,9.43,-30.0625,35.1875,-52.5,-0.002181661564992912,0.0,0.001090830782496456,360.0,0.625,-2.5625,0.999755859375,0.02239990234375,-0.0057373046875,-0.01,-0.03,-0.35000000000000003,0.11,0.43,9.790000000000001,981.4727245345643,29.12021635239944,267.4606822860364
2022-03-03 23:18:32.179613,1.3800000000000001,0.41000000000000003,9.42,-30.0625,34.75,-52.0625,-0.001090830782496456,0.001090830782496456,0.002181661564992912,360.0,0.625,-2.5625,0.999755859375,0.02239990234375,-0.0057373046875,-0.01,-0.02,-0.34,1.3900000000000001,0.43,9.790000000000001,981.5081655596448,29.124694427475333,267.6337760145954
2022-03-03 23:18:32.429805,0.1,0.4,9.450000000000001,-30.0625,35.1875,-52.0625,0.001090830782496456,0.002181661564992912,0.0,360.0,0.625,-2.5625,0.999755859375,0.02239990234375,-0.0057373046875,0.0,-0.01,-0.36,0.11,0.43,9.790000000000001,981.4880369444312,29.11573827266693,267.760818286061
2022-03-03 23:18:32.689621,1.3800000000000001,0.42,9.44,-30.5,35.5625,-50.875,0.0,0.001090830782496456,0.002181661564992912,360.0,0.625,-2.5625,0.999755859375,0.02239990234375,-0.0057373046875,-0.02,-0.02,-0.36,0.11,0.43,9.790000000000001,981.4724362674061,29.12021635239944,267.28759021801767
2022-03-03 23:18:32.929735,0.11,0.4,9.450000000000001,-30.0625,34.5,-52.875,-0.001090830782496456,-0.001090830782496456,0.001090830782496456,360.0,0.625,-2.5625,0.999755859375,0.02239990234375,-0.0057373046875,1.28,-0.01,-0.33,0.11,0.43,9.790000000000001,981.4932850443146,29.12021635239944,267.41833541417844
2022-03-03 23:18:33.179695,0.11,0.4,9.47,-22.75,34.5,-52.0625,0.13962634015954636,-0.001090830782496456,0.001090830782496456,360.0,0.625,-2.5625,0.999755859375,0.02239990234375,-0.0057373046875,-0.01,0.0,-0.35000000000000003,1.3900000000000001,0.43,9.790000000000001,981.4982452204484,29.124694427475333,267.59142901178006
2022-03-03 23:18:33.429567,0.1,0.42,9.43,-30.5,35.1875,-51.6875,0.0,0.0,0.001090830782496456,360.0,0.625,-2.5625,0.999755859375,0.02239990234375,-0.0057373046875,1.28,-0.04,-0.33,1.3900000000000001,0.43,9.790000000000001,981.4934289546794,29.11573827266693,267.672419802801
2022-03-03 23:18:33.680008,0.09,0.41000000000000003,9.42,-30.5,35.1875,-51.25,-0.001090830782496456,-0.002181661564992912,0.002181661564992912,360.0,0.625,-2.5625,0.999755859375,0.02239990234375,-0.0057373046875,-0.02,-0.01,-0.37,0.11,0.43,9.790000000000001,981.5135576386331,29.12693346326705,267.63254086023835
2022-03-03 23:18:33.929765,0.14,0.42,9.42,-30.75,34.5,-52.875,0.13962634015954636,0.002181661564992912,-0.002181661564992912,360.0,0.625,-2.5625,0.999755859375,0.02239990234375,-0.0057373046875,-0.03,0.0,-0.31,1.3900000000000001,0.43,9.790000000000001,981.4985330460908,29.11573827266693,267.6810673204922
2022-03-03 23:18:34.179749,1.4000000000000001,0.39,9.47,-30.75,34.5,-52.875,0.002181661564992912,0.00545415391248228,-0.001090830782496456,360.0,0.625,-2.5625,0.999755859375,0.02239990234375,-0.0057373046875,-0.01,-0.04,-0.32,0.11,0.43,9.790000000000001,981.5131257227057,29.131411531358026,267.33487823075495
2022-03-03 23:18:34.419810,0.1,0.4,9.43,-30.0625,34.5,-52.0625,0.001090830782496456,0.0,0.0,360.0,0.625,-2.5625,0.999755859375,0.02239990234375,-0.0057373046875,1.28,0.0,-0.38,1.3900000000000001,0.43,9.790000000000001,981.4830768162808,29.11573827266693,267.50426434915977
2022-03-03 23:18:34.669707,0.1,0.37,9.43,-29.75,34.75,-51.6875,0.001090830782496456,0.001090830782496456,0.001090830782496456,360.0,0.625,-2.5625,0.999755859375,0.02239990234375,-0.0057373046875,0.0,-0.03,-0.36,0.11,0.43,9.790000000000001,981.4931410821627,29.124694427475333,267.93885778032
2022-03-03 23:18:34.919650,1.3800000000000001,0.39,9.41,-30.75,35.1875,-52.0625,-0.001090830782496456,-0.002181661564992912,-0.001090830782496456,360.0,0.625,-2.5625,0.999755859375,0.02239990234375,-0.0057373046875,0.0,-0.01,-0.35000000000000003,1.3900000000000001,0.43,9.790000000000001,981.4727245345643,29.122455390519463,267.55031829013996
2022-03-03 23:18:35.169772,0.1,0.4,9.41,-30.75,35.5625,-52.0625,0.14180800172453928,-0.002181661564992912,-0.001090830782496456,360.0,0.625,-2.5625,0.999755859375,0.02239990234375,-0.0057373046875,-0.02,-0.03,-0.44,0.11,0.43,9.790000000000001,981.4827887464428,29.129172497894615,267.6362476502681
2022-03-03 23:18:35.409577,0.1,0.42,9.4,-30.75,34.5,-52.5,0.001090830782496456,0.003272492347489368,0.001090830782496456,360.0,0.625,-2.5625,0.999755859375,0.02239990234375,-0.0057373046875,-0.02,-0.01,-0.37,1.3900000000000001,0.43,9.790000000000001,981.5135576386331,29.124694427475333,267.80687140375375
2022-03-03 23:18:35.659728,0.1,0.41000000000000003,9.42,-31.1875,34.75,-52.5,0.13962634015954636,0.007635815477475192,0.0,360.0,0.625,-2.5625,0.999755859375,0.02239990234375,-0.0057373046875,1.28,-0.04,-0.34,0.11,0.43,9.790000000000001,981.5088850188445,29.11573827266693,267.7160017333683
2022-03-03 23:18:35.919609,1.3900000000000001,0.41000000000000003,9.43,-31.5625,34.5,-52.5,0.003272492347489368,-0.00545415391248228,0.002181661564992912,360.0,0.625,-2.5625,0.999755859375,0.02239990234375,-0.0057373046875,0.03,0.0,-0.49,1.3900000000000001,0.43,9.790000000000001,981.4677644783887,29.11797731311526,268.0247886061608
2022-03-03 23:18:36.169584,1.44,0.4,9.43,-31.1875,34.75,-51.75,0.14180800172453928,-0.001090830782496456,-0.001090830782496456,367.9375,0.625,-2.5625,0.999755859375,0.02239990234375,-0.0057373046875,1.28,-0.01,-0.34,1.3900000000000001,0.43,9.790000000000001,981.4884687458386,29.122455390519463,267.72094133937657
2022-03-03 23:18:36.419725,1.3900000000000001,0.43,9.46,-30.5,34.5,-51.75,-0.002181661564992912,-0.001090830782496456,0.003272492347489368,359.9375,0.625,-2.5625,0.999755859375,0.02239990234375,-0.0057373046875,0.0,-0.02,-0.37,1.3900000000000001,0.43,9.790000000000001,981.5080215124452,29.12693346326705,268.1580167519245
2022-03-03 23:18:36.659766,0.1,0.42,9.47,-22.5,34.5,-52.0625,0.1407171709420428,0.007635815477475192,-0.001090830782496456,359.9375,0.625,-2.5625,0.999755859375,0.02239990234375,-0.0057373046875,1.28,-0.03,-0.35000000000000003,1.3900000000000001,0.43,9.790000000000001,981.4779727030957,29.11573827266693,267.72094133937657
2022-03-03 23:18:36.909677,0.09,0.4,9.4,-30.5,34.75,-52.0625,0.0,-0.002181661564992912,0.0,367.9375,0.625,-2.5625,0.999755859375,0.02239990234375,-0.0057373046875,0.0,-0.02,-0.34,1.3900000000000001,0.43,9.790000000000001,981.4578443529648,29.10902114433702,267.93638503956686
2022-03-03 23:18:37.159774,0.11,0.41000000000000003,9.41,-30.5,35.1875,-52.0625,-0.001090830782496456,-0.003272492347489368,0.001090830782496456,359.9375,0.625,-2.5625,0.999755859375,0.02239990234375,-0.0057373046875,1.28,0.0,-0.4,0.11,0.43,9.790000000000001,981.5137015070364,29.11573827266693,267.63254086023835
2022-03-03 23:18:37.409702,0.1,0.43,9.450000000000001,-31.1875,34.0625,-52.0625,0.001090830782496456,0.001090830782496456,-0.002181661564992912,359.9375,0.625,-2.5625,0.999755859375,0.02239990234375,-0.0057373046875,0.01,-0.04,-0.36,0.11,0.43,9.790000000000001,981.4419554814932,29.12693346326705,267.7246506882116
2022-03-03 23:18:37.649683,0.11,0.41000000000000003,9.42,-30.875,34.5,-51.75,0.001090830782496456,0.0,0.001090830782496456,359.9375,0.625,-2.5625,0.999755859375,0.02239990234375,-0.0057373046875,0.0,0.0,-0.34,1.3900000000000001,0.43,9.790000000000001,981.4778286706321,29.124694427475333,267.63254086023835
2022-03-03 23:18:37.899563,0.11,0.4,9.450000000000001,-30.5,34.75,-51.75,0.002181661564992912,-0.001090830782496456,0.0,367.9375,0.625,-2.5625,0.999755859375,0.02239990234375,-0.0057373046875,-0.01,-0.03,-0.38,1.3900000000000001,0.43,9.790000000000001,981.4568351069813,29.129172497894615,267.81677159354376
2022-03-03 23:18:38.139516,0.11,0.4,9.44,-30.5,34.75,-51.75,0.1407171709420428,-0.001090830782496456,-0.002181661564992912,359.9375,0.625,-2.5625,0.999755859375,0.02239990234375,-0.0057373046875,0.0,-0.01,-0.34,0.11,0.43,9.790000000000001,981.4970918464188,29.13588959479239,267.728364017927
2022-03-03 23:18:38.379893,0.11,0.4,9.43,-30.5,34.75,-50.875,0.13962634015954636,-0.002181661564992912,-0.001090830782496456,359.9375,0.625,-2.5625,0.999755859375,0.02239990234375,-0.0057373046875,1.29,-0.01,-0.36,1.3900000000000001,0.43,9.790000000000001,981.4975247500805,29.133650563657284,267.77194818040283
2022-03-03 23:18:38.619636,0.15,0.42,9.47,-30.5,33.75,-53.25,0.002181661564992912,0.001090830782496456,0.001090830782496456,359.9375,0.625,-2.5625,0.999755859375,0.02239990234375,-0.0057373046875,0.0,-0.02,-0.38,0.11,0.43,9.790000000000001,981.5020517913975,29.131411531358026,267.6835420206876
2022-03-03 23:18:38.869696,0.11,0.41000000000000003,9.42,-30.5,34.5,-51.75,0.001090830782496456,0.002181661564992912,0.0,359.9375,0.625,-2.5625,0.999755859375,0.02239990234375,1.9942626953125,0.01,-0.03,-0.33,0.11,0.43,9.790000000000001,981.4922762217392,29.13812862476334,267.77194818040283
2022-03-03 23:18:39.109880,0.11,0.41000000000000003,9.42,-30.875,34.0625,-52.5625,0.14180800172453928,0.0,0.0,367.9375,0.625,-2.5625,0.999755859375,0.02239990234375,-0.0057373046875,1.28,-0.02,-0.33,1.3900000000000001,0.43,9.790000000000001,981.4718591116527,29.133650563657284,267.72960267914596
2022-03-03 23:18:39.349567,1.3800000000000001,0.4,9.47,-30.5,35.1875,-51.375,0.0,0.001090830782496456,-0.002181661564992912,367.9375,0.625,-2.5625,0.999755859375,0.02239990234375,-0.0057373046875,0.0,-0.02,-0.34,0.11,0.43,9.790000000000001,981.512549109788,29.140367653570138,267.64243447998666
2022-03-03 23:18:39.579604,0.1,0.41000000000000003,9.43,-23.5625,34.5,-51.0,0.1407171709420428,0.0,-0.001090830782496456,359.9375,0.625,-2.5625,0.999755859375,0.02239990234375,-0.0057373046875,0.01,-0.02,-0.32,1.3900000000000001,0.43,9.790000000000001,981.4771077315236,29.13812862476334,267.5976126033548
2022-03-03 23:18:39.819555,0.1,0.4,9.46,-30.0625,34.5,-52.1875,0.14180800172453928,-0.001090830782496456,-0.001090830782496456,359.9375,0.625,-2.5625,0.999755859375,0.02239990234375,-0.0057373046875,-0.02,-0.02,-0.34,1.3900000000000001,0.43,9.790000000000001,981.507011732017,29.140367653570138,267.5116835222995
2022-03-03 23:18:40.049711,0.08,0.4,9.42,-31.1875,34.5,-51.75,-0.002181661564992912,-0.001090830782496456,0.0,359.9375,0.625,-2.5625,0.999755859375,0.02239990234375,-0.0057373046875,0.0,0.0,-0.36,0.11,0.43,9.790000000000001,981.4868831954102,29.142606681212783,267.46933809898644
2022-03-03 23:18:40.279637,1.3900000000000001,0.39,9.450000000000001,-22.875,34.75,-51.375,-0.001090830782496456,0.0,0.001090830782496456,359.9375,0.625,-2.5625,0.999755859375,0.02239990234375,-0.0057373046875,-0.02,-0.03,-0.36,1.3900000000000001,0.43,9.790000000000001,981.4861604192001,29.15156278014183,267.8242153135556
2022-03-03 23:18:40.509588,1.3900000000000001,0.4,9.46,-30.875,35.1875,-52.1875,0.14289883250703572,0.004363323129985824,-0.001090830782496456,359.9375,0.625,-2.5625,0.999755859375,0.02239990234375,-0.0057373046875,0.0,-0.02,-0.32,1.3900000000000001,0.43,9.790000000000001,981.506578192169,29.15156278014183,267.6075293504336
2022-03-03 23:18:40.749656,1.37,0.42,9.42,-30.5,34.0625,-51.0,-0.001090830782496456,0.0,-0.001090830782496456,367.9375,0.625,-2.5625,0.999755859375,0.02239990234375,-0.0057373046875,0.0,-0.01,-0.35000000000000003,0.11,0.43,9.790000000000001,981.5010396718504,29.158279842115007,267.65235640820686
2022-03-03 23:18:40.969517,1.3900000000000001,0.39,9.42,-30.875,34.5,-51.375,0.1407171709420428,-0.001090830782496456,0.001090830782496456,367.9375,0.625,-2.5625,0.999755859375,0.02239990234375,-0.0057373046875,0.0,-0.03,-0.4,0.11,0.43,9.790000000000001,981.4604933876802,29.156040822621435,267.7370439352428
2022-03-03 23:18:41.209498,1.3900000000000001,0.39,9.42,-30.875,34.5,-52.1875,0.0,-0.001090830782496456,0.002181661564992912,359.9375,0.625,-2.5625,0.999755859375,0.02239990234375,-0.0057373046875,0.0,-0.02,-0.33,1.3900000000000001,0.43,9.790000000000001,981.5010396718504,29.156040822621435,267.91138740716593
2022-03-03 23:18:41.439649,1.3800000000000001,0.41000000000000003,9.4,-30.0625,34.5,-52.5625,-0.001090830782496456,-0.001090830782496456,0.0,367.9375,0.625,-2.5625,0.999755859375,0.02239990234375,-0.0057373046875,-0.01,0.0,-0.35000000000000003,1.3900000000000001,0.43,9.790000000000001,981.4705574816825,29.1493237571558,267.52160052283716
2022-03-03 23:18:41.679718,0.1,0.42,9.43,-31.5625,34.5,-52.1875,0.13962634015954636,0.001090830782496456,0.0,359.9375,0.625,-2.5625,0.999755859375,0.02239990234375,-0.0057373046875,1.28,-0.02,-0.33,0.11,0.43,9.790000000000001,981.4868831954102,29.13812862476334,267.6872573883743
2022-03-03 23:18:41.939488,0.11,0.39,9.42,-31.1875,35.1875,-52.875,-0.001090830782496456,0.001090830782496456,0.002181661564992912,359.9375,0.625,-2.5625,0.999755859375,0.02239990234375,-0.0057373046875,-0.02,-0.03,-0.34,0.11,0.43,9.790000000000001,981.4768189933748,29.13812862476334,267.68973651178425
2022-03-03 23:18:42.189734,0.09,0.4,9.42,-30.5,34.875,-52.1875,0.13962634015954636,0.0,-0.002181661564992912,359.9375,0.625,-2.5625,0.999755859375,0.02239990234375,-0.0057373046875,0.0,-0.01,-0.37,1.3900000000000001,0.43,9.790000000000001,981.4965139165188,29.147084733005613,267.6473919055113
2022-03-03 23:18:42.429582,0.11,0.42,9.450000000000001,-22.875,35.1875,-52.875,0.13962634015954636,-0.002181661564992912,-0.002181661564992912,359.9375,0.625,-2.5625,0.999755859375,0.02239990234375,-0.0057373046875,0.0,-0.05,-0.36,1.3900000000000001,0.43,9.790000000000001,981.511393398168,29.1493237571558,267.99359268143985
2022-03-03 23:18:42.679779,0.11,0.38,9.46,-31.1875,33.75,-53.375,0.13962634015954636,0.001090830782496456,0.001090830782496456,367.9375,0.625,-2.5625,0.999755859375,0.02239990234375,-0.0057373046875,-0.02,-0.02,-0.37,0.11,0.43,9.790000000000001,981.4705574816825,29.15380180196371,267.91138740716593
2022-03-03 23:18:42.929556,0.1,0.4,9.450000000000001,-30.0625,34.0625,-51.375,0.001090830782496456,-0.003272492347489368,0.001090830782496456,359.9375,0.625,-2.5625,0.999755859375,0.02239990234375,-0.0057373046875,-0.02,-0.03,-0.34,0.11,0.43,9.790000000000001,981.4303013707344,29.15156278014183,267.9948339016019
2022-03-03 23:18:43.179505,0.1,0.4,9.46,-30.875,34.5,-52.5625,-0.001090830782496456,-0.002181661564992912,-0.002181661564992912,367.9375,0.625,-2.5625,0.999755859375,0.02239990234375,-0.0057373046875,0.0,-0.03,-0.37,0.11,0.43,9.790000000000001,981.5011844157193,29.1493237571558,267.82670009219913
2022-03-03 23:18:43.429520,0.08,0.39,9.44,-22.875,34.875,-52.1875,-0.001090830782496456,-0.001090830782496456,0.0,359.9375,0.625,-2.5625,0.999755859375,0.02239990234375,-0.0057373046875,0.01,-0.04,-0.32,1.3900000000000001,0.43,9.790000000000001,981.511248701172,29.15156278014183,267.7382856927376
2022-03-03 23:18:43.679828,0.09,0.41000000000000003,9.450000000000001,-31.1875,34.5,-51.75,0.0,-0.001090830782496456,-0.001090830782496456,367.9375,0.625,-2.5625,0.999755859375,0.02239990234375,-0.0057373046875,0.0,-0.01,-0.35000000000000003,1.3900000000000001,0.43,9.790000000000001,981.5013291078013,29.1493237571558,267.9973176689237
2022-03-03 23:18:43.929672,0.1,0.39,9.450000000000001,-23.1875,34.875,-52.5625,0.0,0.0,-0.001090830782496456,367.9375,0.625,-2.5625,0.999755859375,0.02239990234375,-0.0057373046875,-0.01,-0.02,-0.36,0.11,0.43,9.790000000000001,981.490975435489,29.160518860444427,267.82918664017467
2022-03-03 23:18:44.169506,0.08,0.4,9.41,-30.5,33.75,-51.375,-0.002181661564992912,-0.002181661564992912,-0.001090830782496456,359.9375,0.625,-2.5625,0.999755859375,0.02239990234375,-0.0057373046875,0.0,-0.03,-0.35000000000000003,0.11,0.43,9.790000000000001,981.4654529946172,29.156040822621435,267.78062953498886
2022-03-03 23:18:44.429609,0.11,0.42,9.46,-30.875,35.1875,-51.75,0.002181661564992912,0.002181661564992912,0.0,359.9375,0.625,-2.5625,0.999755859375,0.02239990234375,-0.0057373046875,-0.01,-0.02,-0.35000000000000003,1.3900000000000001,0.43,9.790000000000001,981.4396404656082,29.15156278014183,268.0446337208245
2022-03-03 23:18:44.669616,0.12,0.36,9.57,-30.875,35.1875,-51.375,-0.001090830782496456,-0.001090830782496456,0.0,359.9375,0.625,-2.5625,0.999755859375,0.02239990234375,-0.0057373046875,1.3,-0.01,-0.35000000000000003,1.3900000000000001,0.43,9.790000000000001,981.4959351580214,29.1493237571558,267.5191186187883
2022-03-03 23:18:44.919523,0.16,0.4,9.48,-29.75,34.0625,-52.5625,0.14180800172453928,0.004363323129985824,-0.003272492347489368,367.9375,0.625,-2.5625,0.999755859375,0.02239990234375,-0.0057373046875,0.0,-0.04,-0.32,0.11,0.43,9.790000000000001,981.4814898687417,29.13812862476334,267.73332131672964
2022-03-03 23:18:45.179512,0.1,0.41000000000000003,9.44,-30.5,34.5,-52.5625,-0.001090830782496456,0.002181661564992912,0.001090830782496456,359.9375,0.625,-2.5625,0.999755859375,0.02239990234375,-0.0057373046875,0.0,-0.01,-0.38,0.11,0.43,9.790000000000001,981.5068672705213,29.142606681212783,267.8653178509668
2022-03-03 23:18:45.419466,0.11,0.4,9.450000000000001,-30.875,33.375,-51.375,0.14180800172453928,0.004363323129985824,0.0,367.9375,0.625,-2.5625,0.999755859375,0.02239990234375,-0.0057373046875,1.28,-0.02,-0.38,1.3900000000000001,0.43,9.790000000000001,981.4810559773443,29.15380180196371,267.43443082667443
2022-03-03 23:18:45.669579,0.09,0.4,9.44,-30.5,34.0625,-53.0,-0.001090830782496456,0.004363323129985824,0.0,359.9375,0.625,-2.5625,0.999755859375,0.02239990234375,-0.0057373046875,-0.02,-0.02,-0.36,0.11,0.43,9.790000000000001,981.511827178431,29.144845707691275,267.8192510642353
2022-03-03 23:18:45.929702,0.1,0.41000000000000003,9.42,-30.875,34.0625,-51.75,0.001090830782496456,-0.001090830782496456,0.002181661564992912,367.9375,0.625,-2.5625,0.999755859375,0.02239990234375,-0.0057373046875,0.0,-0.02,-0.33,1.3900000000000001,0.43,9.790000000000001,981.4966584766744,29.147084733005613,268.03966182612805
2022-03-03 23:18:46.169496,0.09,0.39,9.43,-30.875,34.5,-51.75,0.13962634015954636,-0.002181661564992912,0.002181661564992912,367.9375,0.625,-2.5625,0.999755859375,0.02239990234375,-0.0057373046875,1.28,-0.04,-0.37,1.3900000000000001,0.43,9.790000000000001,981.4813452900629,29.13812862476334,267.90394122319964
2022-03-03 23:18:46.419627,0.1,0.41000000000000003,9.43,-30.5,33.75,-51.375,-0.001090830782496456,-0.00545415391248228,0.002181661564992912,367.9375,0.625,-2.5625,0.999755859375,0.02239990234375,-0.0057373046875,0.0,-0.04,-0.37,1.3900000000000001,0.43,9.790000000000001,981.4959351580214,29.15380180196371,267.8217323042393
2022-03-03 23:18:46.659535,1.3900000000000001,0.37,9.450000000000001,-30.0625,33.75,-51.75,0.13962634015954636,-0.002181661564992912,-0.001090830782496456,367.9375,0.625,-2.5625,0.999755859375,0.02239990234375,-0.0057373046875,-0.01,-0.04,-0.35000000000000003,0.11,0.43,9.790000000000001,981.4708470952962,29.15380180196371,267.78311390296267
2022-03-03 23:18:46.909796,0.08,0.42,9.43,-30.875,33.75,-51.375,0.14289883250703572,0.003272492347489368,0.0,359.9375,0.625,-2.5625,0.999755859375,0.02239990234375,-0.0057373046875,1.29,-0.02,-0.31,1.3900000000000001,0.43,9.790000000000001,981.4758067785666,29.15380180196371,267.8217323042393
2022-03-03 23:18:47.159667,0.11,0.42,9.41,-22.875,33.75,-51.375,0.13962634015954636,0.001090830782496456,-0.001090830782496456,367.9375,0.625,-2.5625,0.999755859375,0.02239990234375,-0.0057373046875,-0.01,-0.01,-0.36,0.11,0.43,9.790000000000001,981.475082214372,29.160518860444427,267.52284213834577
2022-03-03 23:18:47.399514,1.3800000000000001,0.4,9.42,-31.1875,34.0625,-51.75,0.1407171709420428,0.002181661564992912,0.0,367.9375,0.625,-2.5625,0.999755859375,0.02239990234375,-0.0057373046875,1.28,-0.02,-0.32,1.3900000000000001,0.43,9.790000000000001,981.4651631269813,29.156040822621435,267.6112554289145
2022-03-03 23:18:47.649630,0.08,0.39,9.450000000000001,-29.75,34.875,-51.75,0.13962634015954636,-0.001090830782496456,0.002181661564992912,359.9375,0.625,-2.5625,0.999755859375,0.02239990234375,-0.0057373046875,1.28,-0.02,-0.32,1.3900000000000001,0.43,9.790000000000001,981.4702676609195,29.162757877609693,267.78311390296267
2022-03-03 23:18:47.899644,0.12,0.4,9.46,-31.1875,34.5,-51.0,0.0,-0.001090830782496456,0.001090830782496456,359.9375,0.625,-2.5625,0.999755859375,0.02239990234375,-0.0057373046875,0.0,-0.03,-0.35000000000000003,1.3900000000000001,0.43,9.790000000000001,981.5051296931456,29.162757877609693,267.69967069841994
2022-03-03 23:18:48.149666,1.3900000000000001,0.4,9.43,-30.875,34.875,-52.5625,-0.001090830782496456,-0.001090830782496456,-0.002181661564992912,367.9375,0.625,-2.5625,0.999755859375,0.02239990234375,-0.0057373046875,1.28,-0.03,-0.33,1.3900000000000001,0.43,9.790000000000001,981.5102343721377,29.167235908447765,267.7930690681833
2022-03-03 23:18:48.389506,0.1,0.41000000000000003,9.43,-30.0625,35.5625,-51.75,-0.001090830782496456,0.001090830782496456,0.001090830782496456,359.9375,0.625,-2.5625,0.999755859375,0.02239990234375,-0.0057373046875,-0.01,-0.04,-0.34,1.3900000000000001,0.43,9.790000000000001,981.454373516557,29.162757877609693,267.7469903804366
2022-03-03 23:18:48.639651,1.3900000000000001,0.41000000000000003,9.46,-30.5,33.75,-51.875,0.001090830782496456,0.002181661564992912,-0.002181661564992912,367.9375,0.625,-2.5625,0.999755859375,0.02239990234375,-0.0057373046875,0.0,-0.02,-0.33,1.3900000000000001,0.43,9.790000000000001,981.4386234773076,29.16947492212057,267.4854706812983
2022-03-03 23:18:48.889746,0.1,0.41000000000000003,9.44,-30.5,33.75,-51.875,-0.001090830782496456,-0.002181661564992912,0.001090830782496456,359.9375,0.625,-2.5625,0.999755859375,0.02239990234375,-0.0057373046875,-0.01,-0.03,-0.34,0.11,0.43,9.790000000000001,981.5201535511404,29.17619195615407,267.92757543426353
2022-03-03 23:18:49.129520,0.1,0.41000000000000003,9.44,-31.5625,33.75,-51.875,0.13962634015954636,-0.001090830782496456,0.0,359.9375,0.625,-2.5625,0.999755859375,0.02239990234375,-0.0057373046875,1.28,-0.02,-0.01,1.3900000000000001,0.43,9.790000000000001,981.4896704544522,29.173952945973724,267.71088049668185
2022-03-03 23:18:49.379678,0.09,0.41000000000000003,9.42,-30.5,33.75,-50.6875,-0.003272492347489368,-0.002181661564992912,0.001090830782496456,359.9375,0.625,-2.5625,0.999755859375,0.02239990234375,-0.0057373046875,0.0,-0.04,-0.34,0.11,0.43,9.790000000000001,981.4946299218199,29.178430965170264,267.83665690014294
2022-03-03 23:18:49.639623,0.11,0.4,9.42,-29.75,34.875,-51.75,0.0,-0.002181661564992912,0.001090830782496456,359.9375,0.625,-2.5625,0.999755859375,0.02239990234375,-0.0057373046875,0.0,-0.02,-0.33,1.3900000000000001,0.43,9.790000000000001,981.4994440712887,29.180669973022304,268.01350528461376
2022-03-03 23:18:49.889669,0.11,0.42,9.44,-30.0625,34.5,-51.0625,0.13962634015954636,0.0,-0.002181661564992912,359.9375,0.625,-2.5625,0.999755859375,0.02239990234375,-0.0057373046875,0.02,0.0,-0.35000000000000003,0.11,0.43,9.790000000000001,981.4635651521679,29.185147985233925,267.7158741299954
2022-03-03 23:18:50.129562,0.11,0.41000000000000003,9.42,-30.5,34.0625,-51.0625,-0.001090830782496456,0.002181661564992912,0.0,367.9375,0.625,-2.5625,0.999755859375,0.02239990234375,-0.0057373046875,1.28,-0.02,-0.38,1.3900000000000001,0.43,9.790000000000001,981.4941939108996,29.180669973022304,267.75322128452916
2022-03-03 23:18:50.379521,0.11,0.4,9.44,-30.0625,33.375,-52.6875,-0.001090830782496456,-0.002181661564992912,-0.001090830782496456,367.9375,0.625,-2.5625,0.999755859375,0.02239990234375,-0.0057373046875,1.28,-0.03,-0.37,1.3900000000000001,0.43,9.790000000000001,981.4844204739734,29.171713934629224,267.9674214690886
2022-03-03 23:18:50.619591,0.1,0.4,9.39,-30.875,34.0625,-51.875,0.0,-0.002181661564992912,0.0,359.9375,0.625,-2.5625,0.999755859375,0.02239990234375,-0.0057373046875,-0.02,-0.03,-0.35000000000000003,0.11,0.43,9.790000000000001,981.4949203368253,29.173952945973724,267.7046484076367
2022-03-03 23:18:50.879678,0.11,0.42,9.450000000000001,-30.0625,33.0625,-52.5625,-0.002181661564992912,0.002181661564992912,0.002181661564992912,367.9375,0.625,-2.5625,0.999755859375,0.02239990234375,-0.0057373046875,-0.01,-0.03,-0.34,1.3900000000000001,0.43,9.790000000000001,981.520298667357,29.16947492212057,267.88024491094785
2022-03-03 23:18:51.129718,0.13,0.4,9.41,-31.5625,33.75,-52.25,0.13962634015954636,-0.003272492347489368,0.001090830782496456,359.9375,0.625,-2.5625,0.999755859375,0.02239990234375,-0.0057373046875,0.0,-0.03,-0.35000000000000003,0.11,0.43,9.790000000000001,981.4743563554862,29.180669973022304,267.6647986279272
2022-03-03 23:18:51.379592,0.08,0.41000000000000003,9.46,-30.0625,34.5,-51.0625,0.002181661564992912,0.0,0.0,359.9375,0.625,-2.5625,0.999755859375,0.02239990234375,-0.0057373046875,1.28,-0.01,-0.35000000000000003,0.11,0.43,9.790000000000001,981.4940484703496,29.18290897971019,267.6710363252773
2022-03-03 23:18:51.629739,0.09,0.42,9.42,-29.75,33.75,-52.25,0.0,0.0,0.002181661564992912,359.9375,0.625,-2.5625,0.999755859375,0.02239990234375,-0.0057373046875,-0.02,-0.03,-0.38,1.3900000000000001,0.43,9.790000000000001,981.5089265060482,29.19410399568733,267.75946324707627
2022-03-03 23:18:51.879657,1.3900000000000001,0.4,9.450000000000001,-30.875,34.5,-51.0625,0.0,0.002181661564992912,0.001090830782496456,359.9375,0.625,-2.5625,0.999755859375,0.02239990234375,-0.0057373046875,-0.01,-0.05,-0.33,0.11,0.43,9.790000000000001,981.4933204907669,29.20082099130377,267.4593389655912
2022-03-03 23:18:52.109577,1.3900000000000001,0.42,9.44,-30.5,33.75,-51.5,0.1407171709420428,0.0,-0.002181661564992912,367.9375,0.625,-2.5625,0.999755859375,0.02239990234375,-0.0057373046875,0.0,-0.03,-0.34,1.3900000000000001,0.43,9.790000000000001,981.4922991442118,29.21201596071478,267.85916322600593
2022-03-03 23:18:52.339564,1.3800000000000001,0.4,9.43,-30.5,34.5,-51.875,0.0,0.002181661564992912,0.0,367.9375,0.625,-2.5625,0.999755859375,0.02239990234375,-0.0057373046875,-0.02,-0.01,-0.37,1.3900000000000001,0.43,9.790000000000001,981.5074684015506,29.21649394033011,267.7283891772472
2022-03-03 23:18:52.569636,1.3900000000000001,0.4,9.43,-30.5,34.0625,-51.0625,-0.001090830782496456,0.002181661564992912,-0.001090830782496456,367.9375,0.625,-2.5625,0.999755859375,0.02239990234375,-0.0057373046875,-0.01,-0.03,-0.34,1.3900000000000001,0.43,9.790000000000001,981.5016321657457,29.22097191528883,267.7321523171949
2022-03-03 23:18:52.809542,1.37,0.4,9.43,-30.0625,34.5,-51.5,-0.001090830782496456,-0.001090830782496456,0.002181661564992912,359.9375,0.625,-2.5625,0.999755859375,0.02239990234375,-0.0057373046875,0.0,-0.03,-0.36,0.11,0.43,9.790000000000001,981.491568057274,29.223210901021957,267.4731138597035
2022-03-03 23:18:53.039550,1.37,0.41000000000000003,9.450000000000001,-30.875,33.75,-52.25,0.002181661564992912,-0.003272492347489368,0.001090830782496456,359.9375,0.625,-2.5625,0.999755859375,0.02239990234375,-0.0057373046875,0.0,-0.02,-0.34,0.11,0.43,9.790000000000001,981.480478330522,29.236644790973514,267.7832835597288
2022-03-03 23:18:53.269544,1.3900000000000001,0.4,9.43,-30.5,34.5,-51.0625,0.0,0.0,-0.002181661564992912,367.9375,0.625,-2.5625,0.999755859375,0.02239990234375,-0.0057373046875,0.0,-0.04,-0.35000000000000003,1.3900000000000001,0.43,9.790000000000001,981.4912752599703,29.225449885590933,267.9962191576712
2022-03-03 23:18:53.509618,1.36,0.38,9.43,-30.875,33.75,-52.25,0.001090830782496456,0.0,0.0,359.9375,0.625,-2.5625,0.999755859375,0.02239990234375,-0.0057373046875,-0.01,-0.03,-0.35000000000000003,1.3900000000000001,0.43,9.790000000000001,981.5011928773447,29.229927851236425,267.8231044231325
2022-03-03 23:18:53.749634,1.3900000000000001,0.4,9.44,-30.0625,33.375,-51.0625,0.0,-0.004363323129985824,0.0,367.9375,0.625,-2.5625,0.999755859375,0.02239990234375,-0.0057373046875,1.28,-0.01,-0.01,1.3900000000000001,0.43,9.790000000000001,981.4962340708402,29.229927851236425,267.56406359800354
2022-03-03 23:18:53.989569,1.37,0.4,9.41,-30.0625,33.375,-51.0625,0.13962634015954636,-0.002181661564992912,0.0,359.9375,0.625,-2.5625,0.999755859375,0.02239990234375,-0.0057373046875,0.0,-0.02,-0.34,1.3900000000000001,0.43,9.790000000000001,981.4650154639698,29.234405812225305,267.6537625470608
2022-03-03 23:18:54.219611,1.3800000000000001,0.41000000000000003,9.43,-29.75,34.5,-51.5,0.0,-0.001090830782496456,0.001090830782496456,367.9375,0.625,-2.5625,0.999755859375,0.02239990234375,-0.0057373046875,-0.01,-0.03,-0.35000000000000003,1.3900000000000001,0.43,9.790000000000001,981.4798910983093,29.236644790973514,267.830653073563
2022-03-03 23:18:54.449494,1.3800000000000001,0.41000000000000003,9.44,-30.0625,33.75,-52.6875,-0.001090830782496456,-0.001090830782496456,0.003272492347489368,359.9375,0.625,-2.5625,0.999755859375,0.02239990234375,-0.0057373046875,-0.01,-0.03,-0.33,1.3900000000000001,0.43,9.790000000000001,981.5055651231276,29.23216683231294,267.65250503901666
2022-03-03 23:18:54.699631,0.09,0.39,9.44,-30.5,33.75,-51.875,0.13962634015954636,-0.002181661564992912,0.0,359.9375,0.625,-2.5625,0.999755859375,0.02239990234375,-0.0057373046875,1.29,-0.03,-0.35000000000000003,0.11,0.43,9.790000000000001,981.4809182108833,29.227688868995756,267.7845416839251
2022-03-03 23:18:54.949589,0.12,0.42,9.41,-30.5,33.75,-51.5,-0.002181661564992912,-0.004363323129985824,-0.001090830782496456,359.9375,0.625,-2.5625,0.999755859375,0.02239990234375,-0.0057373046875,-0.02,-0.03,-0.34,0.11,0.43,9.790000000000001,981.501046344297,29.23216683231294,267.3896969938455
2022-03-03 23:18:55.199632,0.1,0.41000000000000003,9.42,-30.875,34.5,-52.6875,-0.001090830782496456,-0.002181661564992912,0.0,359.9375,0.625,-2.5625,0.999755859375,0.02239990234375,-0.0057373046875,1.28,-0.03,-0.33,1.3900000000000001,0.43,9.790000000000001,981.4707076403515,29.223210901021957,267.5192156714455
2022-03-03 23:18:55.449693,0.31,0.44,9.540000000000001,-30.875,33.0625,-52.25,0.01090830782496456,0.009817477042468103,-0.002181661564992912,0.0,0.625,-2.5625,0.999755859375,0.02239990234375,-0.005859375,0.05,-0.04,-0.38,1.3900000000000001,0.43,9.790000000000001,981.4756663269084,29.229927851236425,267.7820258778863
2022-03-03 23:18:55.699552,0.09,0.4,9.38,-30.0625,33.75,-51.5,-0.003272492347489368,-0.004363323129985824,-0.001090830782496456,8.0,0.625,-2.5625,0.999755859375,0.02239990234375,-0.005859375,0.0,-0.03,-0.38,1.3900000000000001,0.43,9.790000000000001,981.470267619381,29.229927851236425,267.56532025294047
2022-03-03 23:18:55.949714,0.09,0.38,9.46,-31.25,33.75,-51.875,0.001090830782496456,0.00545415391248228,-0.001090830782496456,0.0,0.625,-2.5625,0.999755859375,0.02239990234375,-0.005859375,-0.01,-0.01,-0.33,0.11,0.43,9.790000000000001,981.5259868443737,29.236644790973514,267.7459845582468
2022-03-03 23:18:56.189866,0.1,0.4,9.42,-31.875,33.75,-50.75,0.0,0.0,-0.001090830782496456,8.0,0.625,-2.5625,0.999755859375,0.02239990234375,-0.005859375,1.28,0.0,-0.34,0.11,0.43,9.790000000000001,981.4849965484507,29.247839667252265,267.5690928718501
2022-03-03 23:18:56.429550,1.37,0.42,9.46,-30.0625,34.0625,-51.875,-0.001090830782496456,0.003272492347489368,-0.002181661564992912,8.0,0.625,-2.5625,0.999755859375,0.02239990234375,-0.005859375,0.0,-0.03,-0.37,0.11,0.43,9.790000000000001,981.4701208421435,29.241122744977474,268.04610478762726
2022-03-03 23:18:56.669787,0.11,0.41000000000000003,9.42,-30.875,34.0625,-51.5625,-0.003272492347489368,0.003272492347489368,0.0,0.0,0.625,-2.5625,0.999755859375,0.02239990234375,-0.005859375,-0.01,-0.03,-0.34,0.11,0.43,9.790000000000001,981.4950605831716,29.250078639015555,267.70491098385844
2022-03-03 23:18:56.899565,0.1,0.42,9.43,-31.25,34.0625,-52.25,-0.001090830782496456,0.0,-0.002181661564992912,0.0,0.625,-2.5625,0.999755859375,0.02239990234375,-0.005859375,-0.01,-0.01,-0.37,0.11,0.43,9.790000000000001,981.4539225364429,29.254556579049677,267.96395657751106
2022-03-03 23:18:57.119703,0.11,0.41000000000000003,9.44,-30.875,34.0625,-51.5,-0.001090830782496456,0.001090830782496456,0.0,0.0,0.625,-2.5625,0.999755859375,0.02239990234375,-0.005859375,-0.01,-0.03,-0.37,0.11,0.43,9.790000000000001,981.4534807508485,29.259034514427185,267.75228963489724
2022-03-03 23:18:57.329508,0.11,0.39,9.44,-30.0625,34.0625,-51.875,0.13962634015954636,0.001090830782496456,-0.001090830782496456,0.0,0.625,-2.5625,0.999755859375,0.02239990234375,-0.005859375,0.0,-0.03,-0.3,0.11,0.43,9.790000000000001,981.5150418562512,29.254556579049677,267.8356943544175
2022-03-03 23:18:57.559784,1.37,0.41000000000000003,9.43,-22.875,33.75,-51.5,0.001090830782496456,0.003272492347489368,-0.002181661564992912,8.0,0.625,-2.5625,0.999755859375,0.02239990234375,-0.005859375,0.0,0.0,-0.33,0.11,0.43,9.790000000000001,981.5093479819533,29.26351244514808,268.0163903488127
2022-03-03 23:18:57.789476,0.08,0.43,9.44,-30.875,33.75,-51.5,-0.001090830782496456,0.002181661564992912,-0.001090830782496456,0.0,0.625,-2.5625,0.999755859375,0.02239990234375,-0.005859375,-0.01,-0.02,-0.34,0.11,0.43,9.790000000000001,981.4626596096983,29.27918516600039,267.71753898957
2022-03-03 23:18:57.989441,0.11,0.42,9.39,-31.25,33.375,-51.5625,-0.001090830782496456,0.003272492347489368,0.0,0.0,0.625,-2.5625,0.999755859375,0.02239990234375,-0.005859375,0.0,-0.03,-0.35000000000000003,0.11,0.43,9.790000000000001,981.4673222344018,29.283663075766526,267.7251370266404
2022-03-03 23:18:58.189591,0.09,0.4,9.4,-30.5,33.75,-51.5625,-0.002181661564992912,0.001090830782496456,0.0,0.0,0.625,-2.5625,0.999755859375,0.02239990234375,-0.005859375,0.0,-0.04,-0.35000000000000003,0.11,0.43,9.790000000000001,981.466878639856,29.29485782980919,268.11371499247196
2022-03-03 23:18:58.399617,0.09,0.42,9.44,-30.0625,33.0625,-51.875,0.002181661564992912,0.002181661564992912,-0.001090830782496456,8.0,0.625,-2.5625,0.999755859375,0.02239990234375,-0.005859375,-0.01,-0.03,-0.35000000000000003,1.3900000000000001,0.43,9.790000000000001,981.5243705727627,29.26351244514808,267.4957700478001
2022-03-03 23:18:58.649736,0.1,0.39,9.43,-30.875,34.0625,-51.875,0.0,-0.002181661564992912,-0.001090830782496456,8.0,0.625,-2.5625,0.999755859375,0.02239990234375,-0.005859375,1.28,0.0,-0.36,1.3900000000000001,0.43,9.790000000000001,981.4892198783232,29.2657514087623,267.71121945715737
2022-03-03 23:18:58.889638,0.09,0.42,9.43,-31.25,33.75,-52.75,-0.001090830782496456,0.0,0.0,8.0,0.625,-2.5625,0.999755859375,0.02239990234375,-0.005859375,-0.02,-0.03,-0.35000000000000003,0.11,0.43,9.790000000000001,981.4737558343692,29.26351244514808,267.5842231594649
2022-03-03 23:18:59.149527,0.09,0.4,9.46,-31.25,34.0625,-51.875,0.001090830782496456,-0.001090830782496456,0.001090830782496456,0.0,0.625,-2.5625,0.999755859375,0.02239990234375,-0.005859375,-0.02,-0.04,-0.36,0.11,0.43,9.790000000000001,981.4835250769122,29.270229332498275,267.50082421988833
2022-03-03 23:18:59.399647,0.09,0.4,9.43,-29.75,34.5,-50.75,0.0,-0.001090830782496456,0.001090830782496456,0.0,0.625,-2.5625,0.999755859375,0.02239990234375,-0.005859375,0.0,-0.01,-0.38,0.11,0.43,9.790000000000001,981.4821963243668,29.285902028903365,267.81360063313423
